{"type": "FeatureCollection", "features": [{"geometry": {"type": "Point", "coordinates": [10.7261951, 59.9105147]}, "type": "Feature", "properties": {"name": "Beer Palace"}}, {"geometry": {"type": "Point", "coordinates": [10.7425753, 59.9154138]}, "type": "Feature", "properties": {"name": "Stopp Pressen"}}, {"geometry": {"type": "Point", "coordinates": [10.8002444, 63.412171]}, "type": "Feature", "properties": {"name": "Homla"}}, {"geometry": {"type": "Point", "coordinates": [10.7565851, 59.9138247]}, "type": "Feature", "properties": {"name": "Caf\u00e9 con Bar"}}, {"geometry": {"type": "Point", "coordinates": [11.3854745, 59.120134]}, "type": "Feature", "properties": {"name": "Siste Reis"}}, {"geometry": {"type": "Point", "coordinates": [12.9894915, 69.2022169]}, "type": "Feature", "properties": {"name": "The Plough"}}, {"geometry": {"type": "Point", "coordinates": [12.9914995, 69.2010267]}, "type": "Feature", "properties": {"name": "The Harrow"}}, {"geometry": {"type": "Point", "coordinates": [12.9935944, 69.1996089]}, "type": "Feature", "properties": {"name": "The Brewers Arms"}}, {"geometry": {"type": "Point", "coordinates": [11.3897288, 59.1207236]}, "type": "Feature", "properties": {"name": "Fredrikshald Pub"}}, {"geometry": {"type": "Point", "coordinates": [11.388207, 59.1187173]}, "type": "Feature", "properties": {"name": "Kongens Brygge"}}, {"geometry": {"type": "Point", "coordinates": [11.3874734, 59.1234621]}, "type": "Feature", "properties": {"name": "Nr 13"}}, {"geometry": {"type": "Point", "coordinates": [11.3850949, 59.1193041]}, "type": "Feature", "properties": {"name": "                                                "}}, {"geometry": {"type": "Point", "coordinates": [11.3874522, 59.1225212]}, "type": "Feature", "properties": {"name": "Dickens"}}, {"geometry": {"type": "Point", "coordinates": [10.3957807, 63.4224338]}, "type": "Feature", "properties": {"name": "Daglighallen"}}, {"geometry": {"type": "Point", "coordinates": [10.7338672, 59.9189787]}, "type": "Feature", "properties": {"name": "Ophelia"}}, {"geometry": {"type": "Point", "coordinates": [10.7405305, 59.9098235]}, "type": "Feature", "properties": {"name": "Dubliner"}}, {"geometry": {"type": "Point", "coordinates": [10.4023582, 63.4279411]}, "type": "Feature", "properties": {"name": "Den Gode Nabo"}}, {"geometry": {"type": "Point", "coordinates": [11.3881606, 59.1229911]}, "type": "Feature", "properties": {"name": "                                                "}}, {"geometry": {"type": "Point", "coordinates": [10.4322711, 63.4366548]}, "type": "Feature", "properties": {"name": "Rosendal pub"}}, {"geometry": {"type": "Point", "coordinates": [10.3928913, 63.4313285]}, "type": "Feature", "properties": {"name": "Trondhjem Mikrobryggeri"}}, {"geometry": {"type": "Point", "coordinates": [10.4215673, 63.4379862]}, "type": "Feature", "properties": {"name": "Ramp Pub & Spiseri"}}, {"geometry": {"type": "Point", "coordinates": [8.5811408, 58.337151]}, "type": "Feature", "properties": {"name": "Luftslottet"}}, {"geometry": {"type": "Point", "coordinates": [10.6680662, 59.4384609]}, "type": "Feature", "properties": {"name": "Mikrobryggeriet"}}, {"geometry": {"type": "Point", "coordinates": [10.6649196, 59.4356334]}, "type": "Feature", "properties": {"name": "Queens Pub"}}, {"geometry": {"type": "Point", "coordinates": [10.671358, 59.4284803]}, "type": "Feature", "properties": {"name": "Fetter Antons Sportspub"}}, {"geometry": {"type": "Point", "coordinates": [10.6758406, 59.4225859]}, "type": "Feature", "properties": {"name": "\u00d8revilla kro"}}, {"geometry": {"type": "Point", "coordinates": [10.6683579, 59.4363593]}, "type": "Feature", "properties": {"name": "                                                "}}, {"geometry": {"type": "Point", "coordinates": [9.1272232, 62.0741901]}, "type": "Feature", "properties": {"name": "                                                "}}, {"geometry": {"type": "Point", "coordinates": [10.4837225, 62.8841632]}, "type": "Feature", "properties": {"name": "                                                "}}, {"geometry": {"type": "Point", "coordinates": [11.465275, 60.1238913]}, "type": "Feature", "properties": {"name": "P\u00e5 Sporet"}}, {"geometry": {"type": "Point", "coordinates": [10.7590485, 59.9218801]}, "type": "Feature", "properties": {"name": "Memphis"}}, {"geometry": {"type": "Point", "coordinates": [14.3729016, 67.2829026]}, "type": "Feature", "properties": {"name": "Bryggerikaia"}}, {"geometry": {"type": "Point", "coordinates": [5.3240044, 60.3913925]}, "type": "Feature", "properties": {"name": "TGI Friday\u2019s"}}, {"geometry": {"type": "Point", "coordinates": [10.4027996, 63.4284213]}, "type": "Feature", "properties": {"name": "Antikvariatet"}}, {"geometry": {"type": "Point", "coordinates": [10.4122761, 63.4338923]}, "type": "Feature", "properties": {"name": "Bare Bl\u00e5b\u00e6r"}}, {"geometry": {"type": "Point", "coordinates": [10.4119105, 63.4337556]}, "type": "Feature", "properties": {"name": "B\u00e6r og Bar"}}, {"geometry": {"type": "Point", "coordinates": [10.4124632, 63.4345056]}, "type": "Feature", "properties": {"name": "Barmuda"}}, {"geometry": {"type": "Point", "coordinates": [8.3783046, 58.248366]}, "type": "Feature", "properties": {"name": "Sj\u00f8bua"}}, {"geometry": {"type": "Point", "coordinates": [11.496349, 64.0139543]}, "type": "Feature", "properties": {"name": "Onkel Oscar"}}, {"geometry": {"type": "Point", "coordinates": [6.1561273, 62.4712774]}, "type": "Feature", "properties": {"name": "Posten"}}, {"geometry": {"type": "Point", "coordinates": [6.1586983, 62.4713171]}, "type": "Feature", "properties": {"name": "Keisern"}}, {"geometry": {"type": "Point", "coordinates": [6.1533685, 62.474994]}, "type": "Feature", "properties": {"name": "Tollbugaten"}}, {"geometry": {"type": "Point", "coordinates": [6.1530697, 62.4713044]}, "type": "Feature", "properties": {"name": "Metz"}}, {"geometry": {"type": "Point", "coordinates": [6.1508172, 62.4713236]}, "type": "Feature", "properties": {"name": "Dirty Nelly's"}}, {"geometry": {"type": "Point", "coordinates": [6.1519297, 62.4723357]}, "type": "Feature", "properties": {"name": "Kontoret"}}, {"geometry": {"type": "Point", "coordinates": [5.338742, 60.3769477]}, "type": "Feature", "properties": {"name": "Bien bar"}}, {"geometry": {"type": "Point", "coordinates": [10.3975187, 63.4336823]}, "type": "Feature", "properties": {"name": "Erich Christians Skjenkestue"}}, {"geometry": {"type": "Point", "coordinates": [10.4015808, 63.4339028]}, "type": "Feature", "properties": {"name": "Cafe 3B"}}, {"geometry": {"type": "Point", "coordinates": [9.6094591, 59.2071264]}, "type": "Feature", "properties": {"name": "Mets"}}, {"geometry": {"type": "Point", "coordinates": [9.6108, 59.2083646]}, "type": "Feature", "properties": {"name": "Dubliner"}}, {"geometry": {"type": "Point", "coordinates": [9.6063959, 59.207207]}, "type": "Feature", "properties": {"name": "Lundetangen Pub"}}, {"geometry": {"type": "Point", "coordinates": [9.6081827, 59.2093283]}, "type": "Feature", "properties": {"name": "Gimle Pub"}}, {"geometry": {"type": "Point", "coordinates": [5.3197205, 60.3944034]}, "type": "Feature", "properties": {"name": "Trappen Pub"}}, {"geometry": {"type": "Point", "coordinates": [5.3206608, 60.3917854]}, "type": "Feature", "properties": {"name": "Henrik \u00f8l og vinstove"}}, {"geometry": {"type": "Point", "coordinates": [9.6538763, 59.1402185]}, "type": "Feature", "properties": {"name": "Pohlmanns Matbar"}}, {"geometry": {"type": "Point", "coordinates": [9.6534378, 59.1405216]}, "type": "Feature", "properties": {"name": "Jimmys"}}, {"geometry": {"type": "Point", "coordinates": [9.6546935, 59.1401612]}, "type": "Feature", "properties": {"name": "Parkrestauranten"}}, {"geometry": {"type": "Point", "coordinates": [9.651071, 59.1390322]}, "type": "Feature", "properties": {"name": "CaffeCompagniet"}}, {"geometry": {"type": "Point", "coordinates": [9.656085, 59.1447412]}, "type": "Feature", "properties": {"name": "Caf\u00e9 Osebro"}}, {"geometry": {"type": "Point", "coordinates": [10.761444, 59.9256437]}, "type": "Feature", "properties": {"name": "Tamara"}}, {"geometry": {"type": "Point", "coordinates": [10.6588362, 59.8495676]}, "type": "Feature", "properties": {"name": "                                                "}}, {"geometry": {"type": "Point", "coordinates": [10.7734065, 59.9127213]}, "type": "Feature", "properties": {"name": "Bydels kro"}}, {"geometry": {"type": "Point", "coordinates": [10.6047959, 59.6418673]}, "type": "Feature", "properties": {"name": "Freyborgstua"}}, {"geometry": {"type": "Point", "coordinates": [29.7167153, 70.6303272]}, "type": "Feature", "properties": {"name": "Rainer's"}}, {"geometry": {"type": "Point", "coordinates": [7.8553762, 61.0827182]}, "type": "Feature", "properties": {"name": "Postaabneriet"}}, {"geometry": {"type": "Point", "coordinates": [10.6887791, 59.4627573]}, "type": "Feature", "properties": {"name": "Rompa Bar"}}, {"geometry": {"type": "Point", "coordinates": [5.3210863, 60.3914868]}, "type": "Feature", "properties": {"name": "Boha"}}, {"geometry": {"type": "Point", "coordinates": [10.7242288, 59.9242328]}, "type": "Feature", "properties": {"name": "Oslo Mikrobryggeri"}}, {"geometry": {"type": "Point", "coordinates": [10.7464972, 59.9117615]}, "type": "Feature", "properties": {"name": "Sir Winston"}}, {"geometry": {"type": "Point", "coordinates": [10.7435954, 59.9125642]}, "type": "Feature", "properties": {"name": "The Scotsman"}}, {"geometry": {"type": "Point", "coordinates": [10.742372, 59.912876]}, "type": "Feature", "properties": {"name": "3 Br\u00f8dre"}}, {"geometry": {"type": "Point", "coordinates": [10.9384337, 59.2130938]}, "type": "Feature", "properties": {"name": "Katti"}}, {"geometry": {"type": "Point", "coordinates": [5.7288698, 58.9699641]}, "type": "Feature", "properties": {"name": "Checkpoint Charlie"}}, {"geometry": {"type": "Point", "coordinates": [10.7236735, 59.9105549]}, "type": "Feature", "properties": {"name": "Il Barbera"}}, {"geometry": {"type": "Point", "coordinates": [5.7279667, 58.9674885]}, "type": "Feature", "properties": {"name": "Kaf\u00e9 Akvariet"}}, {"geometry": {"type": "Point", "coordinates": [10.3931328, 63.4318383]}, "type": "Feature", "properties": {"name": "No.13"}}, {"geometry": {"type": "Point", "coordinates": [10.083199, 61.3393886]}, "type": "Feature", "properties": {"name": "Skei Vikingland"}}, {"geometry": {"type": "Point", "coordinates": [12.1563641, 61.3225495]}, "type": "Feature", "properties": {"name": "Sankt Olav Lunsj"}}, {"geometry": {"type": "Point", "coordinates": [10.934078, 59.2133886]}, "type": "Feature", "properties": {"name": "Havnelageret Gastropub"}}, {"geometry": {"type": "Point", "coordinates": [5.3237693, 60.3894562]}, "type": "Feature", "properties": {"name": "Garage"}}, {"geometry": {"type": "Point", "coordinates": [5.3229187, 60.389689]}, "type": "Feature", "properties": {"name": "Fincken"}}, {"geometry": {"type": "Point", "coordinates": [5.3231813, 60.3896191]}, "type": "Feature", "properties": {"name": "Apollon"}}, {"geometry": {"type": "Point", "coordinates": [5.3197632, 60.3905756]}, "type": "Feature", "properties": {"name": "Baran"}}, {"geometry": {"type": "Point", "coordinates": [10.7273763, 59.9108408]}, "type": "Feature", "properties": {"name": "V\u00e9rit\u00e9"}}, {"geometry": {"type": "Point", "coordinates": [10.7278859, 59.9094929]}, "type": "Feature", "properties": {"name": "Lektern"}}, {"geometry": {"type": "Point", "coordinates": [11.2950046, 59.7033426]}, "type": "Feature", "properties": {"name": "                                                "}}, {"geometry": {"type": "Point", "coordinates": [5.8666785, 59.930755]}, "type": "Feature", "properties": {"name": "D\u00f8nhaugkjedlaren"}}, {"geometry": {"type": "Point", "coordinates": [5.7307422, 58.9712452]}, "type": "Feature", "properties": {"name": "Hansen Hj\u00f8rnet"}}, {"geometry": {"type": "Point", "coordinates": [18.9564895, 69.6469584]}, "type": "Feature", "properties": {"name": "Skarven"}}, {"geometry": {"type": "Point", "coordinates": [18.9504773, 69.6458442]}, "type": "Feature", "properties": {"name": "\u00d8lhallen"}}, {"geometry": {"type": "Point", "coordinates": [11.4675951, 60.1241986]}, "type": "Feature", "properties": {"name": "                                                "}}, {"geometry": {"type": "Point", "coordinates": [18.9621696, 69.6520357]}, "type": "Feature", "properties": {"name": "Driv"}}, {"geometry": {"type": "Point", "coordinates": [10.7210424, 59.9402152]}, "type": "Feature", "properties": {"name": "Pubben"}}, {"geometry": {"type": "Point", "coordinates": [18.958978, 69.6521685]}, "type": "Feature", "properties": {"name": "Verdensteateret"}}, {"geometry": {"type": "Point", "coordinates": [18.9608079, 69.6528734]}, "type": "Feature", "properties": {"name": "Perez"}}, {"geometry": {"type": "Point", "coordinates": [18.9567804, 69.6501577]}, "type": "Feature", "properties": {"name": "Solid"}}, {"geometry": {"type": "Point", "coordinates": [18.9581483, 69.6500984]}, "type": "Feature", "properties": {"name": "Flyt"}}, {"geometry": {"type": "Point", "coordinates": [7.1171127, 60.8637846]}, "type": "Feature", "properties": {"name": "\u00c6gir bryggeri"}}, {"geometry": {"type": "Point", "coordinates": [5.7312288, 58.9706871]}, "type": "Feature", "properties": {"name": "Ovenpaa"}}, {"geometry": {"type": "Point", "coordinates": [5.7310692, 58.970927]}, "type": "Feature", "properties": {"name": "Beverly & Sportscaf\u00e9"}}, {"geometry": {"type": "Point", "coordinates": [7.7943802, 58.8278848]}, "type": "Feature", "properties": {"name": "Bjoren Brygge (Brygga)"}}, {"geometry": {"type": "Point", "coordinates": [11.0479328, 59.955778]}, "type": "Feature", "properties": {"name": "Martins"}}, {"geometry": {"type": "Point", "coordinates": [6.2737426, 62.6634874]}, "type": "Feature", "properties": {"name": "Gunnarbuda"}}, {"geometry": {"type": "Point", "coordinates": [5.7386731, 58.9714088]}, "type": "Feature", "properties": {"name": "Piren Pub"}}, {"geometry": {"type": "Point", "coordinates": [10.4057768, 59.2660025]}, "type": "Feature", "properties": {"name": "Esmeralda"}}, {"geometry": {"type": "Point", "coordinates": [10.4055197, 59.2661822]}, "type": "Feature", "properties": {"name": "Harbour Cafe"}}, {"geometry": {"type": "Point", "coordinates": [10.4053566, 59.2662875]}, "type": "Feature", "properties": {"name": "Havariet"}}, {"geometry": {"type": "Point", "coordinates": [10.4060643, 59.2667515]}, "type": "Feature", "properties": {"name": "Lauritz"}}, {"geometry": {"type": "Point", "coordinates": [10.4058716, 59.2665857]}, "type": "Feature", "properties": {"name": "Helmers"}}, {"geometry": {"type": "Point", "coordinates": [10.4086693, 59.2676951]}, "type": "Feature", "properties": {"name": "Big Ben"}}, {"geometry": {"type": "Point", "coordinates": [10.4089353, 59.2688355]}, "type": "Feature", "properties": {"name": "Black & White"}}, {"geometry": {"type": "Point", "coordinates": [8.768222, 58.4519493]}, "type": "Feature", "properties": {"name": "Moringen"}}, {"geometry": {"type": "Point", "coordinates": [11.9981108, 60.1911185]}, "type": "Feature", "properties": {"name": "Telegrafen"}}, {"geometry": {"type": "Point", "coordinates": [10.4064295, 59.2662962]}, "type": "Feature", "properties": {"name": "Louis"}}, {"geometry": {"type": "Point", "coordinates": [10.4063608, 59.2664673]}, "type": "Feature", "properties": {"name": "Mytteriet"}}, {"geometry": {"type": "Point", "coordinates": [10.9412734, 60.8840818]}, "type": "Feature", "properties": {"name": "Bakg\u00e5rden pub"}}, {"geometry": {"type": "Point", "coordinates": [10.8697054, 59.3531406]}, "type": "Feature", "properties": {"name": "R\u00e5de Vertshus"}}, {"geometry": {"type": "Point", "coordinates": [10.2053768, 59.7442179]}, "type": "Feature", "properties": {"name": "Goggen"}}, {"geometry": {"type": "Point", "coordinates": [18.9825179, 69.6460572]}, "type": "Feature", "properties": {"name": "Fergekroa"}}, {"geometry": {"type": "Point", "coordinates": [10.0318668, 59.0501223]}, "type": "Feature", "properties": {"name": "Sporet"}}, {"geometry": {"type": "Point", "coordinates": [5.7310989, 58.9699022]}, "type": "Feature", "properties": {"name": "Korvetten"}}, {"geometry": {"type": "Point", "coordinates": [5.7324934, 58.9707259]}, "type": "Feature", "properties": {"name": "Munken"}}, {"geometry": {"type": "Point", "coordinates": [5.7303421, 58.9685256]}, "type": "Feature", "properties": {"name": "Alexander pub"}}, {"geometry": {"type": "Point", "coordinates": [9.2424877, 60.9853351]}, "type": "Feature", "properties": {"name": "Fagernes Gjesteg\u00e5rd"}}, {"geometry": {"type": "Point", "coordinates": [18.9556023, 69.6505259]}, "type": "Feature", "properties": {"name": "Bardus"}}, {"geometry": {"type": "Point", "coordinates": [5.5007862, 59.7800581]}, "type": "Feature", "properties": {"name": "Osvald"}}, {"geometry": {"type": "Point", "coordinates": [10.3995318, 63.4221396]}, "type": "Feature", "properties": {"name": "Lucas"}}, {"geometry": {"type": "Point", "coordinates": [5.5023192, 59.7816168]}, "type": "Feature", "properties": {"name": "Den bl\u00e5 time"}}, {"geometry": {"type": "Point", "coordinates": [10.8032145, 59.7739327]}, "type": "Feature", "properties": {"name": "Valentinos"}}, {"geometry": {"type": "Point", "coordinates": [10.8364713, 59.7189793]}, "type": "Feature", "properties": {"name": "                                                "}}, {"geometry": {"type": "Point", "coordinates": [10.7594949, 59.9201731]}, "type": "Feature", "properties": {"name": "Sangam"}}, {"geometry": {"type": "Point", "coordinates": [11.1931973, 60.7179455]}, "type": "Feature", "properties": {"name": "                                                "}}, {"geometry": {"type": "Point", "coordinates": [5.2271882, 60.2888072]}, "type": "Feature", "properties": {"name": "Food Factory"}}, {"geometry": {"type": "Point", "coordinates": [10.7701314, 59.9151408]}, "type": "Feature", "properties": {"name": "Treffen cafe"}}, {"geometry": {"type": "Point", "coordinates": [5.5234268, 60.0459068]}, "type": "Feature", "properties": {"name": "Mandelhuset"}}, {"geometry": {"type": "Point", "coordinates": [10.0290594, 59.0519725]}, "type": "Feature", "properties": {"name": "Skomakeren Pub"}}, {"geometry": {"type": "Point", "coordinates": [11.049859, 59.9574839]}, "type": "Feature", "properties": {"name": "Jekyl and Hyde"}}, {"geometry": {"type": "Point", "coordinates": [17.4306916, 68.438645]}, "type": "Feature", "properties": {"name": "Narvikguten Pub"}}, {"geometry": {"type": "Point", "coordinates": [17.4300913, 68.4382092]}, "type": "Feature", "properties": {"name": "Telegrafen"}}, {"geometry": {"type": "Point", "coordinates": [5.3216666, 60.3911734]}, "type": "Feature", "properties": {"name": "Pingvinen"}}, {"geometry": {"type": "Point", "coordinates": [9.6108261, 59.2075712]}, "type": "Feature", "properties": {"name": "Bar'n"}}, {"geometry": {"type": "Point", "coordinates": [11.0484584, 59.957176]}, "type": "Feature", "properties": {"name": "Klimt"}}, {"geometry": {"type": "Point", "coordinates": [5.2582369, 59.1493139]}, "type": "Feature", "properties": {"name": "Lanternen"}}, {"geometry": {"type": "Point", "coordinates": [5.2679852, 59.4123123]}, "type": "Feature", "properties": {"name": "                                                "}}, {"geometry": {"type": "Point", "coordinates": [5.2671097, 59.4132641]}, "type": "Feature", "properties": {"name": "                                                "}}, {"geometry": {"type": "Point", "coordinates": [5.3219793, 60.3897286]}, "type": "Feature", "properties": {"name": "Det Akademiske Kvarter"}}, {"geometry": {"type": "Point", "coordinates": [10.9163075, 63.4682253]}, "type": "Feature", "properties": {"name": "Bamses"}}, {"geometry": {"type": "Point", "coordinates": [5.7317564, 58.9711806]}, "type": "Feature", "properties": {"name": "Champs Sportbar"}}, {"geometry": {"type": "Point", "coordinates": [10.9366653, 59.211619]}, "type": "Feature", "properties": {"name": "NiNi Bar"}}, {"geometry": {"type": "Point", "coordinates": [10.9385716, 59.211968]}, "type": "Feature", "properties": {"name": "Dragen Pub"}}, {"geometry": {"type": "Point", "coordinates": [10.9382305, 59.211072]}, "type": "Feature", "properties": {"name": "Dampen Pub"}}, {"geometry": {"type": "Point", "coordinates": [10.7837867, 59.9073795]}, "type": "Feature", "properties": {"name": "Enga bar & caf\u00e9"}}, {"geometry": {"type": "Point", "coordinates": [10.934556, 59.2138173]}, "type": "Feature", "properties": {"name": "Hawk"}}, {"geometry": {"type": "Point", "coordinates": [16.3783935, 68.0970953]}, "type": "Feature", "properties": {"name": "Rogers Kro"}}, {"geometry": {"type": "Point", "coordinates": [10.7491617, 59.92813]}, "type": "Feature", "properties": {"name": "Tranen"}}, {"geometry": {"type": "Point", "coordinates": [7.8045011, 58.5870869]}, "type": "Feature", "properties": {"name": "Terrassen Pub"}}, {"geometry": {"type": "Point", "coordinates": [10.7532774, 59.9168645]}, "type": "Feature", "properties": {"name": "Cacadou"}}, {"geometry": {"type": "Point", "coordinates": [5.2698848, 59.4127267]}, "type": "Feature", "properties": {"name": "Lord Nelson"}}, {"geometry": {"type": "Point", "coordinates": [10.8139709, 59.8968853]}, "type": "Feature", "properties": {"name": "Hylla Cafe og Bar"}}, {"geometry": {"type": "Point", "coordinates": [10.7226895, 59.9414799]}, "type": "Feature", "properties": {"name": "Uglebo"}}, {"geometry": {"type": "Point", "coordinates": [10.7232568, 59.940146]}, "type": "Feature", "properties": {"name": "Integrerbar"}}, {"geometry": {"type": "Point", "coordinates": [10.7249748, 59.9410177]}, "type": "Feature", "properties": {"name": "U1"}}, {"geometry": {"type": "Point", "coordinates": [7.9287388, 62.7217432]}, "type": "Feature", "properties": {"name": "Kro"}}, {"geometry": {"type": "Point", "coordinates": [5.267658, 59.4138273]}, "type": "Feature", "properties": {"name": "Irish Viking"}}, {"geometry": {"type": "Point", "coordinates": [5.2682212, 59.4125362]}, "type": "Feature", "properties": {"name": "Munkekjelleren"}}, {"geometry": {"type": "Point", "coordinates": [10.0916295, 61.3361026]}, "type": "Feature", "properties": {"name": "                                                "}}, {"geometry": {"type": "Point", "coordinates": [6.1588542, 62.4717511]}, "type": "Feature", "properties": {"name": "Ta Det Piano"}}, {"geometry": {"type": "Point", "coordinates": [6.1461297, 62.4733442]}, "type": "Feature", "properties": {"name": "Teaterfabrikken"}}, {"geometry": {"type": "Point", "coordinates": [6.1522988, 62.4706764]}, "type": "Feature", "properties": {"name": "Vega"}}, {"geometry": {"type": "Point", "coordinates": [6.1563865, 62.473374]}, "type": "Feature", "properties": {"name": "Hoffman"}}, {"geometry": {"type": "Point", "coordinates": [6.1566655, 62.4739987]}, "type": "Feature", "properties": {"name": "                                                "}}, {"geometry": {"type": "Point", "coordinates": [10.8182649, 59.9075609]}, "type": "Feature", "properties": {"name": "Olsen"}}, {"geometry": {"type": "Point", "coordinates": [7.4578342, 58.0280196]}, "type": "Feature", "properties": {"name": "Bryggekanten"}}, {"geometry": {"type": "Point", "coordinates": [7.4524376, 58.0270254]}, "type": "Feature", "properties": {"name": "Mandals Puben"}}, {"geometry": {"type": "Point", "coordinates": [7.4519548, 58.0267385]}, "type": "Feature", "properties": {"name": "KROEN"}}, {"geometry": {"type": "Point", "coordinates": [7.457566, 58.0279159]}, "type": "Feature", "properties": {"name": "Marna Kafe"}}, {"geometry": {"type": "Point", "coordinates": [7.4553666, 58.0278804]}, "type": "Feature", "properties": {"name": "Jonas B. Gundersen"}}, {"geometry": {"type": "Point", "coordinates": [10.7653578, 59.9273975]}, "type": "Feature", "properties": {"name": "Shamrock"}}, {"geometry": {"type": "Point", "coordinates": [7.4518475, 58.0257698]}, "type": "Feature", "properties": {"name": "Sj\u00f8boden"}}, {"geometry": {"type": "Point", "coordinates": [16.1262076, 69.3210311]}, "type": "Feature", "properties": {"name": "Arresten"}}, {"geometry": {"type": "Point", "coordinates": [6.1268777, 62.2001581]}, "type": "Feature", "properties": {"name": "Norr\u00f8na Pub"}}, {"geometry": {"type": "Point", "coordinates": [10.7970762, 59.9141244]}, "type": "Feature", "properties": {"name": "Karoline pub & spiseri"}}, {"geometry": {"type": "Point", "coordinates": [10.7954293, 59.6654595]}, "type": "Feature", "properties": {"name": "Buggen"}}, {"geometry": {"type": "Point", "coordinates": [10.7913111, 59.6647095]}, "type": "Feature", "properties": {"name": "Ikke bare Texas"}}, {"geometry": {"type": "Point", "coordinates": [10.7895095, 59.909546]}, "type": "Feature", "properties": {"name": "V\u00e5lerenga Vertshus"}}, {"geometry": {"type": "Point", "coordinates": [10.7637241, 59.9334897]}, "type": "Feature", "properties": {"name": "Lincoln Pub"}}, {"geometry": {"type": "Point", "coordinates": [10.0380222, 58.9976531]}, "type": "Feature", "properties": {"name": "Tordenskiold Pub"}}, {"geometry": {"type": "Point", "coordinates": [10.0382295, 58.9978296]}, "type": "Feature", "properties": {"name": "Det gule galleriet"}}, {"geometry": {"type": "Point", "coordinates": [8.5060045, 63.2261188]}, "type": "Feature", "properties": {"name": "Dampen Pub"}}, {"geometry": {"type": "Point", "coordinates": [10.7621472, 59.9113818]}, "type": "Feature", "properties": {"name": "OSLOKMEKANISKEVERKSTED"}}, {"geometry": {"type": "Point", "coordinates": [10.0093807, 59.7509048]}, "type": "Feature", "properties": {"name": "Mj\u00f8ndalen Gjestegiveri"}}, {"geometry": {"type": "Point", "coordinates": [11.9997425, 60.1875209]}, "type": "Feature", "properties": {"name": "Kelebek"}}, {"geometry": {"type": "Point", "coordinates": [10.760351, 59.918368]}, "type": "Feature", "properties": {"name": "Schouskjelleren mikrobryggeri"}}, {"geometry": {"type": "Point", "coordinates": [10.7511109, 59.9274036]}, "type": "Feature", "properties": {"name": "Park Lounge"}}, {"geometry": {"type": "Point", "coordinates": [9.6880959, 59.0771646]}, "type": "Feature", "properties": {"name": "Heistadpuben"}}, {"geometry": {"type": "Point", "coordinates": [10.9420488, 60.8846652]}, "type": "Feature", "properties": {"name": "Corner'n"}}, {"geometry": {"type": "Point", "coordinates": [10.2590365, 60.1708109]}, "type": "Feature", "properties": {"name": "Johansens Cafe"}}, {"geometry": {"type": "Point", "coordinates": [5.2659274, 59.4141319]}, "type": "Feature", "properties": {"name": "Captain's Cabin"}}, {"geometry": {"type": "Point", "coordinates": [5.3208084, 60.3925881]}, "type": "Feature", "properties": {"name": "Ricks"}}, {"geometry": {"type": "Point", "coordinates": [5.7312406, 58.970566]}, "type": "Feature", "properties": {"name": "Dickens"}}, {"geometry": {"type": "Point", "coordinates": [5.7334855, 58.9727576]}, "type": "Feature", "properties": {"name": "B\u00f8ker og B\u00f8rst"}}, {"geometry": {"type": "Point", "coordinates": [5.7320819, 58.9722222]}, "type": "Feature", "properties": {"name": "Opera"}}, {"geometry": {"type": "Point", "coordinates": [10.7887816, 59.2137702]}, "type": "Feature", "properties": {"name": "Hank\u00f8 Marina"}}, {"geometry": {"type": "Point", "coordinates": [5.3588499, 60.3792644]}, "type": "Feature", "properties": {"name": "Club Alrek (only open fridays)"}}, {"geometry": {"type": "Point", "coordinates": [10.7804949, 59.9072312]}, "type": "Feature", "properties": {"name": "Galgeberg Corner"}}, {"geometry": {"type": "Point", "coordinates": [10.7881767, 59.9106255]}, "type": "Feature", "properties": {"name": "Kampen Pub"}}, {"geometry": {"type": "Point", "coordinates": [10.7494671, 59.9144013]}, "type": "Feature", "properties": {"name": "Internasjonalen"}}, {"geometry": {"type": "Point", "coordinates": [10.2541165, 60.1657185]}, "type": "Feature", "properties": {"name": "Casino"}}, {"geometry": {"type": "Point", "coordinates": [10.2553316, 60.1663884]}, "type": "Feature", "properties": {"name": "To Br\u00f8dre"}}, {"geometry": {"type": "Point", "coordinates": [10.2567719, 60.1690677]}, "type": "Feature", "properties": {"name": "Lloyds"}}, {"geometry": {"type": "Point", "coordinates": [10.2548702, 60.1670996]}, "type": "Feature", "properties": {"name": "Smutthullet"}}, {"geometry": {"type": "Point", "coordinates": [10.2567209, 60.1687421]}, "type": "Feature", "properties": {"name": "Un Poco"}}, {"geometry": {"type": "Point", "coordinates": [5.729034, 58.9698485]}, "type": "Feature", "properties": {"name": "Sky Club"}}, {"geometry": {"type": "Point", "coordinates": [5.7329348, 58.9668434]}, "type": "Feature", "properties": {"name": "Viking Pub"}}, {"geometry": {"type": "Point", "coordinates": [10.2064156, 59.7440541]}, "type": "Feature", "properties": {"name": "Buddy scene"}}, {"geometry": {"type": "Point", "coordinates": [10.2040005, 59.743994]}, "type": "Feature", "properties": {"name": "Lauritz"}}, {"geometry": {"type": "Point", "coordinates": [8.0626684, 59.6939297]}, "type": "Feature", "properties": {"name": "                                                "}}, {"geometry": {"type": "Point", "coordinates": [10.7626931, 59.9341695]}, "type": "Feature", "properties": {"name": "Grisen"}}, {"geometry": {"type": "Point", "coordinates": [7.2556875, 62.2984532]}, "type": "Feature", "properties": {"name": "Kul\u00e5 Bowling"}}, {"geometry": {"type": "Point", "coordinates": [10.7384826, 59.927151]}, "type": "Feature", "properties": {"name": "Nye Colletts Caf\u00e9"}}, {"geometry": {"type": "Point", "coordinates": [5.2674108, 59.4125942]}, "type": "Feature", "properties": {"name": "Mack'en"}}, {"geometry": {"type": "Point", "coordinates": [14.4786688, 68.2101101]}, "type": "Feature", "properties": {"name": "Pr\u00e6stengbrygga"}}, {"geometry": {"type": "Point", "coordinates": [10.7653909, 59.9361092]}, "type": "Feature", "properties": {"name": "Magneten"}}, {"geometry": {"type": "Point", "coordinates": [9.4139006, 58.8689193]}, "type": "Feature", "properties": {"name": "Onkel Oskar"}}, {"geometry": {"type": "Point", "coordinates": [6.2721731, 62.6384028]}, "type": "Feature", "properties": {"name": "Karius & Backtus"}}, {"geometry": {"type": "Point", "coordinates": [17.053106, 69.362538]}, "type": "Feature", "properties": {"name": "                                                "}}, {"geometry": {"type": "Point", "coordinates": [5.3227149, 60.3916282]}, "type": "Feature", "properties": {"name": "Kontoret"}}, {"geometry": {"type": "Point", "coordinates": [5.3231821, 60.3894492]}, "type": "Feature", "properties": {"name": "Legal"}}, {"geometry": {"type": "Point", "coordinates": [7.9948623, 58.1427176]}, "type": "Feature", "properties": {"name": "Brasserie"}}, {"geometry": {"type": "Point", "coordinates": [5.3217967, 60.391977]}, "type": "Feature", "properties": {"name": "Logehaven"}}, {"geometry": {"type": "Point", "coordinates": [5.7330934, 58.9724489]}, "type": "Feature", "properties": {"name": "MaMi Open Mind"}}, {"geometry": {"type": "Point", "coordinates": [10.7178816, 59.943016]}, "type": "Feature", "properties": {"name": "Escape"}}, {"geometry": {"type": "Point", "coordinates": [10.7398943, 59.9229624]}, "type": "Feature", "properties": {"name": "Underwater Pub"}}, {"geometry": {"type": "Point", "coordinates": [10.740656, 59.9231318]}, "type": "Feature", "properties": {"name": "La Boheme"}}, {"geometry": {"type": "Point", "coordinates": [10.4973202, 59.7814425]}, "type": "Feature", "properties": {"name": "Gamle Slemmestad pub"}}, {"geometry": {"type": "Point", "coordinates": [6.80155, 58.094683]}, "type": "Feature", "properties": {"name": "Jochums Pub"}}, {"geometry": {"type": "Point", "coordinates": [10.9774081, 59.2328054]}, "type": "Feature", "properties": {"name": "Snippen Sportsbar"}}, {"geometry": {"type": "Point", "coordinates": [9.2582006, 59.5592954]}, "type": "Feature", "properties": {"name": "Carbiden"}}, {"geometry": {"type": "Point", "coordinates": [11.1120598, 59.2832668]}, "type": "Feature", "properties": {"name": "Olsen Pub"}}, {"geometry": {"type": "Point", "coordinates": [11.1118828, 59.2837271]}, "type": "Feature", "properties": {"name": "Edvarts Pub"}}, {"geometry": {"type": "Point", "coordinates": [11.1137657, 59.2823132]}, "type": "Feature", "properties": {"name": "Neptun Pub"}}, {"geometry": {"type": "Point", "coordinates": [9.5462919, 60.8237819]}, "type": "Feature", "properties": {"name": "Raven"}}, {"geometry": {"type": "Point", "coordinates": [5.3238415, 60.3897138]}, "type": "Feature", "properties": {"name": "Ujevnt"}}, {"geometry": {"type": "Point", "coordinates": [9.7037781, 62.6052453]}, "type": "Feature", "properties": {"name": "L\u00e5ven"}}, {"geometry": {"type": "Point", "coordinates": [10.748743, 59.9153228]}, "type": "Feature", "properties": {"name": "Bonanza"}}, {"geometry": {"type": "Point", "coordinates": [10.7496878, 59.916872]}, "type": "Feature", "properties": {"name": "Revolver"}}, {"geometry": {"type": "Point", "coordinates": [5.3440109, 62.0448965]}, "type": "Feature", "properties": {"name": "Frimannstua"}}, {"geometry": {"type": "Point", "coordinates": [10.1905714, 59.1478586]}, "type": "Feature", "properties": {"name": "Nabo'n Pub"}}, {"geometry": {"type": "Point", "coordinates": [9.1955548, 63.0480544]}, "type": "Feature", "properties": {"name": "Saga Trollheimen"}}, {"geometry": {"type": "Point", "coordinates": [10.657436, 59.4349025]}, "type": "Feature", "properties": {"name": "Tivolikjeller'n"}}, {"geometry": {"type": "Point", "coordinates": [10.6559171, 59.4341134]}, "type": "Feature", "properties": {"name": "Kontoret"}}, {"geometry": {"type": "Point", "coordinates": [10.8302017, 59.8484096]}, "type": "Feature", "properties": {"name": "                                                "}}, {"geometry": {"type": "Point", "coordinates": [6.6931334, 58.0979257]}, "type": "Feature", "properties": {"name": "8th Avenue Bar & Supper Club"}}, {"geometry": {"type": "Point", "coordinates": [10.2040511, 59.7388781]}, "type": "Feature", "properties": {"name": "The Kings Arms"}}, {"geometry": {"type": "Point", "coordinates": [6.8042766, 58.094941]}, "type": "Feature", "properties": {"name": "Pakkhuset"}}, {"geometry": {"type": "Point", "coordinates": [17.4389445, 69.5191968]}, "type": "Feature", "properties": {"name": "Mefjord brygge"}}, {"geometry": {"type": "Point", "coordinates": [7.0006441, 58.0227239]}, "type": "Feature", "properties": {"name": "Puben p\u00e5 brygga"}}, {"geometry": {"type": "Point", "coordinates": [5.3245204, 60.3850904]}, "type": "Feature", "properties": {"name": "Hulen"}}, {"geometry": {"type": "Point", "coordinates": [7.9926064, 58.1438806]}, "type": "Feature", "properties": {"name": "Javel pub"}}, {"geometry": {"type": "Point", "coordinates": [5.3477114, 60.3864432]}, "type": "Feature", "properties": {"name": "Waldemars mikrobryggeri"}}, {"geometry": {"type": "Point", "coordinates": [7.1872279, 60.9064897]}, "type": "Feature", "properties": {"name": "Duehuset"}}, {"geometry": {"type": "Point", "coordinates": [13.3495166, 68.0346792]}, "type": "Feature", "properties": {"name": "Oriana Kro"}}, {"geometry": {"type": "Point", "coordinates": [13.6088124, 68.1467]}, "type": "Feature", "properties": {"name": "wiik kjellar'n"}}, {"geometry": {"type": "Point", "coordinates": [10.7408399, 59.9144986]}, "type": "Feature", "properties": {"name": "Bohemen"}}, {"geometry": {"type": "Point", "coordinates": [14.9134128, 68.5686561]}, "type": "Feature", "properties": {"name": "R\u00f8dbrygga"}}, {"geometry": {"type": "Point", "coordinates": [10.8474083, 60.110391]}, "type": "Feature", "properties": {"name": "Tangenten Bar"}}, {"geometry": {"type": "Point", "coordinates": [5.5009256, 59.7782402]}, "type": "Feature", "properties": {"name": "Sj\u00f8huset"}}, {"geometry": {"type": "Point", "coordinates": [5.9204264, 60.0615429]}, "type": "Feature", "properties": {"name": "BrukBAR"}}, {"geometry": {"type": "Point", "coordinates": [10.9769871, 59.919933]}, "type": "Feature", "properties": {"name": "                                                "}}, {"geometry": {"type": "Point", "coordinates": [20.532945, 69.5420136]}, "type": "Feature", "properties": {"name": "Manndalskroa"}}, {"geometry": {"type": "Point", "coordinates": [10.7359041, 59.9112546]}, "type": "Feature", "properties": {"name": "Tordenskiold"}}, {"geometry": {"type": "Point", "coordinates": [5.6173933, 58.9990153]}, "type": "Feature", "properties": {"name": "Corner Pub"}}, {"geometry": {"type": "Point", "coordinates": [8.520271, 59.6066985]}, "type": "Feature", "properties": {"name": "lien fjellgard"}}, {"geometry": {"type": "Point", "coordinates": [6.6613335, 58.4185179]}, "type": "Feature", "properties": {"name": "                                                "}}, {"geometry": {"type": "Point", "coordinates": [10.4288073, 63.4381711]}, "type": "Feature", "properties": {"name": "Mellomveien"}}, {"geometry": {"type": "Point", "coordinates": [10.7154504, 59.9275592]}, "type": "Feature", "properties": {"name": "Lille Chef"}}, {"geometry": {"type": "Point", "coordinates": [10.7469894, 59.9145975]}, "type": "Feature", "properties": {"name": "Justisen"}}, {"geometry": {"type": "Point", "coordinates": [10.7148269, 59.9167599]}, "type": "Feature", "properties": {"name": "Forest & Brown"}}, {"geometry": {"type": "Point", "coordinates": [11.3162084, 59.641244]}, "type": "Feature", "properties": {"name": "Smia"}}, {"geometry": {"type": "Point", "coordinates": [8.5697928, 61.8384611]}, "type": "Feature", "properties": {"name": "Fjoset pub"}}, {"geometry": {"type": "Point", "coordinates": [10.6137667, 60.7262634]}, "type": "Feature", "properties": {"name": "Fredriks Pub"}}, {"geometry": {"type": "Point", "coordinates": [5.3198965, 62.1197917]}, "type": "Feature", "properties": {"name": "Furebuda"}}, {"geometry": {"type": "Point", "coordinates": [10.395094, 63.4327331]}, "type": "Feature", "properties": {"name": "Mormors Stue"}}, {"geometry": {"type": "Point", "coordinates": [14.3799522, 67.2830491]}, "type": "Feature", "properties": {"name": "The Match Pub"}}, {"geometry": {"type": "Point", "coordinates": [10.7742193, 59.9246756]}, "type": "Feature", "properties": {"name": "Elmer's pub & Biljard"}}, {"geometry": {"type": "Point", "coordinates": [23.2742163, 69.9668308]}, "type": "Feature", "properties": {"name": "barila pub"}}, {"geometry": {"type": "Point", "coordinates": [10.7306881, 59.9257453]}, "type": "Feature", "properties": {"name": "Store St\u00e5 Pub"}}, {"geometry": {"type": "Point", "coordinates": [10.4394816, 61.2408643]}, "type": "Feature", "properties": {"name": "Hafjell Fj\u00f8set"}}, {"geometry": {"type": "Point", "coordinates": [10.3982031, 63.4339777]}, "type": "Feature", "properties": {"name": "Lille London"}}, {"geometry": {"type": "Point", "coordinates": [9.2395374, 58.7189303]}, "type": "Feature", "properties": {"name": "                                                "}}, {"geometry": {"type": "Point", "coordinates": [11.1834919, 64.731531]}, "type": "Feature", "properties": {"name": "Styrmanden"}}, {"geometry": {"type": "Point", "coordinates": [17.4215575, 68.4400641]}, "type": "Feature", "properties": {"name": "Narvik Bowling"}}, {"geometry": {"type": "Point", "coordinates": [10.7668366, 59.9288339]}, "type": "Feature", "properties": {"name": "Caf\u00e9 Lyon"}}, {"geometry": {"type": "Point", "coordinates": [10.3925933, 63.430405]}, "type": "Feature", "properties": {"name": "Cafe Dublin"}}, {"geometry": {"type": "Point", "coordinates": [11.0683834, 60.7957097]}, "type": "Feature", "properties": {"name": "Docile Kontor & Pub"}}, {"geometry": {"type": "Point", "coordinates": [13.7747209, 66.8344282]}, "type": "Feature", "properties": {"name": "Trubaduren pub og bistro"}}, {"geometry": {"type": "Point", "coordinates": [14.5645944, 68.2314136]}, "type": "Feature", "properties": {"name": "Styrhuset pub"}}, {"geometry": {"type": "Point", "coordinates": [10.7403191, 59.9096164]}, "type": "Feature", "properties": {"name": "SLM Oslo"}}, {"geometry": {"type": "Point", "coordinates": [12.1010339, 66.5007503]}, "type": "Feature", "properties": {"name": "Kro\u00e6 Tr\u00e6na"}}, {"geometry": {"type": "Point", "coordinates": [8.5524735, 60.8626913]}, "type": "Feature", "properties": {"name": "Bar(t)"}}, {"geometry": {"type": "Point", "coordinates": [8.5498954, 60.8637497]}, "type": "Feature", "properties": {"name": "T-kroken"}}, {"geometry": {"type": "Point", "coordinates": [5.3304158, 60.3933469]}, "type": "Feature", "properties": {"name": "Victoria"}}, {"geometry": {"type": "Point", "coordinates": [5.7358876, 58.8532896]}, "type": "Feature", "properties": {"name": "Melkebaren"}}, {"geometry": {"type": "Point", "coordinates": [5.7357035, 58.8531806]}, "type": "Feature", "properties": {"name": "Megleren"}}, {"geometry": {"type": "Point", "coordinates": [8.7485327, 59.8786901]}, "type": "Feature", "properties": {"name": "Den lykkelige sportsmann"}}, {"geometry": {"type": "Point", "coordinates": [7.691017, 58.942245]}, "type": "Feature", "properties": {"name": "                                                "}}, {"geometry": {"type": "Point", "coordinates": [11.0342715, 60.0715553]}, "type": "Feature", "properties": {"name": "                                                "}}, {"geometry": {"type": "Point", "coordinates": [23.6822613, 70.6628819]}, "type": "Feature", "properties": {"name": "Kaikanten"}}, {"geometry": {"type": "Point", "coordinates": [23.6852984, 70.662931]}, "type": "Feature", "properties": {"name": "Banjer'n Pub"}}, {"geometry": {"type": "Point", "coordinates": [6.4274305, 60.6292027]}, "type": "Feature", "properties": {"name": "Inside"}}, {"geometry": {"type": "Point", "coordinates": [10.7348069, 59.9134993]}, "type": "Feature", "properties": {"name": "Amundsen Bryggeri & Spiseri"}}, {"geometry": {"type": "Point", "coordinates": [10.7683441, 59.9064553]}, "type": "Feature", "properties": {"name": "Ruinen"}}, {"geometry": {"type": "Point", "coordinates": [10.734715, 59.9201336]}, "type": "Feature", "properties": {"name": "Evergreen"}}, {"geometry": {"type": "Point", "coordinates": [18.9545373, 69.6517599]}, "type": "Feature", "properties": {"name": "Sivertsen Cafe"}}, {"geometry": {"type": "Point", "coordinates": [5.3203492, 60.3911546]}, "type": "Feature", "properties": {"name": "Biskopen"}}, {"geometry": {"type": "Point", "coordinates": [5.3203806, 60.3916808]}, "type": "Feature", "properties": {"name": "Elefanten"}}, {"geometry": {"type": "Point", "coordinates": [5.319465, 60.3920955]}, "type": "Feature", "properties": {"name": "Ferdinand P\u00e5 Engen"}}, {"geometry": {"type": "Point", "coordinates": [5.3205757, 60.3927184]}, "type": "Feature", "properties": {"name": "Finnegans"}}, {"geometry": {"type": "Point", "coordinates": [5.3218175, 60.3912584]}, "type": "Feature", "properties": {"name": "Hectors Hybel"}}, {"geometry": {"type": "Point", "coordinates": [5.3210472, 60.3915065]}, "type": "Feature", "properties": {"name": "Onkel Lauritz"}}, {"geometry": {"type": "Point", "coordinates": [5.3280183, 60.394208]}, "type": "Feature", "properties": {"name": "Folk og R\u00f8vere"}}, {"geometry": {"type": "Point", "coordinates": [5.3251926, 60.3952445]}, "type": "Feature", "properties": {"name": "Lille Zachen"}}, {"geometry": {"type": "Point", "coordinates": [5.3284822, 60.3944541]}, "type": "Feature", "properties": {"name": "Roll & Rock"}}, {"geometry": {"type": "Point", "coordinates": [5.3251346, 60.395195]}, "type": "Feature", "properties": {"name": "Wave Fun Pub & Bar"}}, {"geometry": {"type": "Point", "coordinates": [5.3210166, 60.3902363]}, "type": "Feature", "properties": {"name": "Fotballpubben"}}, {"geometry": {"type": "Point", "coordinates": [5.3204096, 60.3916683]}, "type": "Feature", "properties": {"name": "Konrads k\u00e5k"}}, {"geometry": {"type": "Point", "coordinates": [5.3218543, 60.39164]}, "type": "Feature", "properties": {"name": "Privaten"}}, {"geometry": {"type": "Point", "coordinates": [31.1100983, 70.3709922]}, "type": "Feature", "properties": {"name": "                                                "}}, {"geometry": {"type": "Point", "coordinates": [10.9183667, 63.454409]}, "type": "Feature", "properties": {"name": "O'Learys Sportsbar"}}, {"geometry": {"type": "Point", "coordinates": [10.3999564, 63.433982]}, "type": "Feature", "properties": {"name": "Macbeth Scottish Pub"}}, {"geometry": {"type": "Point", "coordinates": [10.4014134, 63.4327413]}, "type": "Feature", "properties": {"name": "Olavs Pub og Spiseri"}}, {"geometry": {"type": "Point", "coordinates": [10.4012364, 63.4341322]}, "type": "Feature", "properties": {"name": "Three Lions English pub"}}, {"geometry": {"type": "Point", "coordinates": [10.4043334, 63.4341987]}, "type": "Feature", "properties": {"name": "Fru Lundgreen"}}, {"geometry": {"type": "Point", "coordinates": [5.6484439, 58.7352238]}, "type": "Feature", "properties": {"name": "Thime Station"}}, {"geometry": {"type": "Point", "coordinates": [10.3963643, 63.4345962]}, "type": "Feature", "properties": {"name": "Kaf\u00e9 Larssen"}}, {"geometry": {"type": "Point", "coordinates": [11.0778665, 61.4250991]}, "type": "Feature", "properties": {"name": "Biotopen"}}, {"geometry": {"type": "Point", "coordinates": [10.7521891, 59.9114396]}, "type": "Feature", "properties": {"name": "Sidesporet pub"}}, {"geometry": {"type": "Point", "coordinates": [9.0595572, 59.414721]}, "type": "Feature", "properties": {"name": "The Bull Inn"}}, {"geometry": {"type": "Point", "coordinates": [5.7267251, 58.9721431]}, "type": "Feature", "properties": {"name": "gnu"}}, {"geometry": {"type": "Point", "coordinates": [10.7144973, 59.3326124]}, "type": "Feature", "properties": {"name": "M\u00f8vik Pub"}}, {"geometry": {"type": "Point", "coordinates": [11.2995037, 63.7469994]}, "type": "Feature", "properties": {"name": "Orion"}}, {"geometry": {"type": "Point", "coordinates": [11.2997871, 63.7471139]}, "type": "Feature", "properties": {"name": "Oscars"}}, {"geometry": {"type": "Point", "coordinates": [11.298158, 63.7467038]}, "type": "Feature", "properties": {"name": "P\u00f8bben"}}, {"geometry": {"type": "Point", "coordinates": [10.4022137, 63.4346239]}, "type": "Feature", "properties": {"name": "Brygghus 9"}}, {"geometry": {"type": "Point", "coordinates": [10.7491478, 59.9143621]}, "type": "Feature", "properties": {"name": "Kulturhuset"}}, {"geometry": {"type": "Point", "coordinates": [6.803474, 58.0945721]}, "type": "Feature", "properties": {"name": "Bondeheimen Kulturpub"}}, {"geometry": {"type": "Point", "coordinates": [10.7593207, 59.9131427]}, "type": "Feature", "properties": {"name": "Bob's"}}, {"geometry": {"type": "Point", "coordinates": [10.7604771, 59.9123992]}, "type": "Feature", "properties": {"name": "K\u00f8benhavner-Kafeen"}}, {"geometry": {"type": "Point", "coordinates": [11.5631996, 60.8821256]}, "type": "Feature", "properties": {"name": "Sound Garden"}}, {"geometry": {"type": "Point", "coordinates": [11.5633429, 60.8846956]}, "type": "Feature", "properties": {"name": "Lundgaard"}}, {"geometry": {"type": "Point", "coordinates": [11.5630153, 60.8813532]}, "type": "Feature", "properties": {"name": "Elvarheim"}}, {"geometry": {"type": "Point", "coordinates": [10.7486152, 59.9140185]}, "type": "Feature", "properties": {"name": "Wurst"}}, {"geometry": {"type": "Point", "coordinates": [10.4025517, 63.4319605]}, "type": "Feature", "properties": {"name": "Daniel"}}, {"geometry": {"type": "Point", "coordinates": [6.658512, 60.3255006]}, "type": "Feature", "properties": {"name": "Ekspedisjonen Skjenkestove"}}, {"geometry": {"type": "Point", "coordinates": [6.5085316, 60.6734253]}, "type": "Feature", "properties": {"name": "                                                "}}, {"geometry": {"type": "Point", "coordinates": [25.5098522, 69.4714837]}, "type": "Feature", "properties": {"name": "Bivdu Pub og cafe"}}, {"geometry": {"type": "Point", "coordinates": [7.9952986, 58.1445391]}, "type": "Feature", "properties": {"name": "Patricks Pub"}}, {"geometry": {"type": "Point", "coordinates": [10.7406881, 59.9098554]}, "type": "Feature", "properties": {"name": "The Whisky Bar"}}, {"geometry": {"type": "Point", "coordinates": [10.752045, 59.910578]}, "type": "Feature", "properties": {"name": "Royal Gastropub"}}, {"geometry": {"type": "Point", "coordinates": [10.6920953, 61.1500852]}, "type": "Feature", "properties": {"name": "Nye L\u00e5ven Pub"}}]}